Portals

{"maps":{"idOthers":{"label":"Others","state":1,"bkmrk":{}}},"portals":{"idOthers":{"label":"Others","state":1,"bkmrk":{"id1452534155308":{"guid":"1a64455ad44443ebbbc81f0ee7043978.16","latlng":"33.389157,-111.795261","label":"Emerald 11"},"id1452534158129":{"guid":"1af8d2e6ddcc4eaba5a8b8f9fdfcd055.16","latlng":"33.389114,-111.795524","label":"Emerald 9"},"id1452534161657":{"guid":"8533d1bf96b14dc99a5316bbf30362b1.16","latlng":"33.388939,-111.795343","label":"Emerald 9"},"id1452534166700":{"guid":"f3066ef8620f4202a27b4fbbbb6c2332.16","latlng":"33.388716,-111.79677","label":"Emerald Park"},"id1452534170086":{"guid":"4feae105b027486f91cd50eb6be21964.16","latlng":"33.389043,-111.796369","label":"Emerald 10"},"id1452534173291":{"guid":"ab530247a1b14242b8bb11a8a6f09a19.16","latlng":"33.38858,-111.796351","label":"Emerald 18"},"id1452534176435":{"guid":"5b9e5a7040e54b0db19531b4ac4ac6b7.16","latlng":"33.388397,-111.796373","label":"Emerald 1"},"id1452534183014":{"guid":"edbfd066d165487294ed114c96fc22ae.16","latlng":"33.387545,-111.796774","label":"Emerald 2"},"id1452534187216":{"guid":"9c5d58740d9b4bfb976a12299943141e.16","latlng":"33.388008,-111.795683","label":"Emerald 8"},"id1452534190563":{"guid":"1a7c6fe4e3274e90b97e2f8f432f3ee6.16","latlng":"33.387673,-111.795743","label":"Emerald 12"},"id1452534193859":{"guid":"c2257490810a417580a2712723d34b94.16","latlng":"33.387211,-111.79529","label":"Emerald 3"},"id1452534196951":{"guid":"fac38ba308184b88be345da810e50bfc.16","latlng":"33.388171,-111.794703","label":"Emerald 13 "},"id1452534205273":{"guid":"08908c92c68d450282e4f883238901d7.16","latlng":"33.388017,-111.793556","label":"Emerald 14"},"id1452534208051":{"guid":"fa166c383582439a9586526b00e28fbf.16","latlng":"33.388069,-111.793207","label":"E2 Park"},"id1452534212141":{"guid":"cd198c4d1ec94425887e30fe495eb141.16","latlng":"33.387478,-111.794754","label":"Emerald 16"},"id1452534217927":{"guid":"c79fd3f1994b4290b328898590c6aaa8.16","latlng":"33.387254,-111.794367","label":"Emerald 4"},"id1452534221430":{"guid":"79ee12214cc54bb1bc1bc96426ead6f1.16","latlng":"33.38724,-111.793263","label":"Emerald 15"},"id1452534224900":{"guid":"adf0aaed833940f891f914874a413b36.16","latlng":"33.387358,-111.793038","label":"Emerald 5"},"id1452534249537":{"guid":"a00dc9a198c04ce7a9ef7f8871c0eef1.16","latlng":"33.379148,-111.800328","label":"Queen of Heaven"},"id1452534252761":{"guid":"2e5e441377b3452e8977113faa8e1cbf.16","latlng":"33.379505,-111.800857","label":"Into Your Hands"},"id1452534255685":{"guid":"b0a270719ba74d439a2fd57e27cda45a.16","latlng":"33.380212,-111.79915","label":"Queen Statute"},"id1452534260310":{"guid":"51736168790f4337a88cd825516779d5.16","latlng":"33.37976,-111.798746","label":"St. Anne"},"id1452534269853":{"guid":"b2821363d647444a87ae734d6fd2885c.16","latlng":"33.380971,-111.798982","label":"Angel of Heaven"},"id1452534273044":{"guid":"8d05091a6da0489f83a407471a19fe6d.16","latlng":"33.380973,-111.799234","label":"Stained Glass Angel"},"id1452534278268":{"guid":"5cf5c782dbfa4ee3bb6dc03a8fd67bc9.16","latlng":"33.380889,-111.800371","label":"Shrine of the Shepherd"},"id1452534281586":{"guid":"d05e8dff607d4e47b94b3a3baa097df1.16","latlng":"33.380464,-111.800563","label":"Praying Child"},"id1452534284512":{"guid":"37550c4a15c348d19848f35ad1b87d80.16","latlng":"33.380262,-111.801153","label":"Holy Mother"},"id1452534287550":{"guid":"2f2f0d968ba54bbeb8503ac851bfa26a.16","latlng":"33.380257,-111.800921","label":"Queen Mary's Fountain"},"id1452534291131":{"guid":"04f94f2b4ac7493c97ca2de66cb3cf82.16","latlng":"33.379908,-111.801005","label":"Holy Spirit Garden"},"id1452534294473":{"guid":"55886cacd7a74566a47f3f523c9fc566.16","latlng":"33.380046,-111.801249","label":"The Resurrection"},"id1452534301148":{"guid":"b85daff18b22407b80aad66f9d6baa44.16","latlng":"33.379727,-111.801064","label":"Cross of Christ"},"id1452534308237":{"guid":"ee970e91b651463f8a8ef2206a4338c0.16","latlng":"33.379379,-111.799684","label":"Fallen Christ Statute"},"id1452534312660":{"guid":"5000b097459248828a976c6f6921bca9.16","latlng":"33.38013,-111.80017","label":"Tears Speak but Spirits Soar  "}}}}}
