{"maps":{"idOthers":{"label":"Others","state":1,"bkmrk":{}}},"portals":{"idOthers":{"label":"Others","state":1,"bkmrk":{"id1451443070733":{"guid":"3d31ec4a7ce14535ab319e1a4aa0b2a9.16","latlng":"33.411036,-111.81996","label":"Church"},"id1451443074534":{"guid":"938314152400458b8459b495c4ee538f.16","latlng":"33.411685,-111.819357","label":"Mesa Temple Spire"},"id1451443078691":{"guid":"1f2e2a6cd3bd4065960ee6e82130cb1b.16","latlng":"33.412731,-111.819333","label":"Lion Head Fountain"},"id1451443084162":{"guid":"387621e83a97491fb2a3af0d122278bd.12","latlng":"33.412833,-111.819642","label":"House of the Lord Temple"},"id1451443090153":{"guid":"7c23c7e50498488a9c6b3e846d05b2d6.12","latlng":"33.412869,-111.820521","label":"Mesa Arizona Temple"},"id1451443097031":{"guid":"3e202a01bab0403c83c3077deb44fafa.12","latlng":"33.41312,-111.820296","label":"Mesa Arizona Temple"},"id1451443102097":{"guid":"07d512d6ffcf4e9b8ccaec6912ab81f4.16","latlng":"33.413225,-111.81999","label":"Petrified Wood Monument II"},"id1451443107300":{"guid":"d7db95c0c92044ac8189bbd3108d2964.16","latlng":"33.413219,-111.819695","label":"Large Fountain"},"id1451443115563":{"guid":"b37cd5a22bf9400a9f61e9987d54350f.16","latlng":"33.413419,-111.819297","label":"Rock Art"},"id1451443119838":{"guid":"04c1649d05094b07a257887e77e0c75b.12","latlng":"33.413536,-111.819615","label":"LDS Temple"},"id1451443124242":{"guid":"dab1ec1df02e47c0a35cc667cb52f820.16","latlng":"33.414022,-111.819811","label":"Mesa Temple Visitors Center"},"id1451443130726":{"guid":"d4c0d9fbc31846f7965bcba2be5a6359.16","latlng":"33.415321,-111.818677","label":"Pioneer Park Southeast Entrance"},"id1451443135326":{"guid":"eb409f2469ee4fae9b97e734e2426b78.12","latlng":"33.415333,-111.819566","label":"Mesa Pioneer Monument"},"id1451443140853":{"guid":"e29c7fd231d046578ae96798ee1a76d4.16","latlng":"33.415531,-111.819549","label":"In Memory of Richard L. Love"},"id1451443143897":{"guid":"1cd8b46a28aa44e496027ec172ed9ed7.16","latlng":"33.41579,-111.819139","label":"Rufus Dog Plaque"},"id1451443147798":{"guid":"ba37820215fa47fd924a1a4770385b08.12","latlng":"33.415866,-111.81955","label":"Mesa"},"id1451443152188":{"guid":"709559cdc85048f59bb4e81931f5df08.16","latlng":"33.415485,-111.820485","label":"Designated dog exercise sign"},"id1451443161554":{"guid":"e8c361a0abbd4f77ae8e25b0b4f3680a.16","latlng":"33.415072,-111.822193","label":"Light Rail Art"},"id1451443165202":{"guid":"7b1ca342e9a14c969beaa3dbf04ec03d.16","latlng":"33.41487,-111.823235","label":"Family Fundamental Unit of Society"},"id1451443168660":{"guid":"e1cdfa1cecdd4906887efec90e7ae6d1.16","latlng":"33.414117,-111.822824","label":"Kids Need to Read"},"id1451443186859":{"guid":"e0bd3527326c41868479e0fa24a1795d.16","latlng":"33.414913,-111.826434","label":"Breaking Ground"},"id1451443191226":{"guid":"df46746d50014da1bc2f18a13a7e29c1.11","latlng":"33.41487,-111.828647","label":"Three Guys Sitting"},"id1451443196166":{"guid":"a3a47593ed384ef98a4158439a726831.16","latlng":"33.414961,-111.82911","label":"The Teacher"},"id1451443201886":{"guid":"b0df74714f344c3aa5e95dcf3aca12b7.16","latlng":"33.415233,-111.829045","label":"Fragments Of Support"},"id1451443206431":{"guid":"305812558c7740dfb87eefe8c622c72e.16","latlng":"33.415972,-111.828646","label":"Garden Chapel"},"id1451443216313":{"guid":"e7a8ae4ae7f6435dbc30589f34ec1c02.11","latlng":"33.414932,-111.830515","label":"Mesa Arts Center - Rainshelter Bus Stop"},"id1451443220344":{"guid":"542278a39f2c4c9aa477be05753fdeb2.11","latlng":"33.415301,-111.830162","label":"Girl with Helicopter Sculpture"}}}}}
