Portals:

{"maps":{"idOthers":{"label":"Others","state":1,"bkmrk":{}}},"portals":{"idOthers":{"label":"Others","state":1,"bkmrk":{"id1451012293646":{"guid":"3b689006d01e44ab899c9a38df063c83.16","latlng":"33.43018,-111.888838","label":"Walkway to Happiness"},"id1451012296696":{"guid":"20e7f74ef7474c7482a496323cbb56cc.16","latlng":"33.429717,-111.888772","label":"Maricopa County Animal Care and Control Mural"},"id1451012300655":{"guid":"27fd07af7234407fa479ba67e3be35a9.16","latlng":"33.42946,-111.889037","label":"Love Play Adopt Mural"},"id1451012306462":{"guid":"0b8ebf5eb45745e4938ec10f6224292b.16","latlng":"33.430558,-111.884759","label":"Cubs Spring Training Facility"},"id1451012310421":{"guid":"44f8cb39d64b4b5eac13e002d8360c21.16","latlng":"33.429761,-111.882427","label":"Cubs Spring Training Stadium"},"id1451012313481":{"guid":"4c70aadfa1514ae5a8c2c98a82356e5d.16","latlng":"33.429571,-111.881438","label":"First Base Gate"},"id1451012317185":{"guid":"f2916d6be57944c98087baa809d442ba.16","latlng":"33.430318,-111.882615","label":"Home Plate Gate"},"id1451012320694":{"guid":"cc7e9bf94ee84e4e95166c940667fd15.16","latlng":"33.430277,-111.88215","label":"Cubs Logos Through Time"},"id1451012324791":{"guid":"405ed6f7007941a9aa30c0f32ac6d67d.16","latlng":"33.430141,-111.881474","label":"First Base Gate"},"id1451012333658":{"guid":"9aafaddb399a4472bca63b5adb8d12d4.16","latlng":"33.430534,-111.881297","label":"Hibernation Vacation"},"id1451012339525":{"guid":"ef435639b56a45fbb813081cf72aeff4.16","latlng":"33.430963,-111.880405","label":"Right Field Gate"},"id1451012343451":{"guid":"3f39335227224879ba4267e13b5ffe26.16","latlng":"33.432372,-111.880848","label":"Center Field Gate"},"id1451012349418":{"guid":"2d18c4d6022847daa629b776543e544f.16","latlng":"33.432269,-111.876379","label":"Riverview Pictures Of Fishes"},"id1451012354720":{"guid":"4848ead3a1a04535987d3d5f1a7c1431.16","latlng":"33.431609,-111.876448","label":"Riverview Fountain"},"id1451012358760":{"guid":"4b0ecdcb12824e219acff3f912619b2f.16","latlng":"33.431592,-111.876411","label":"Color Changing Fountain"},"id1451012363170":{"guid":"62f7287836e547318655c8e8c564274b.16","latlng":"33.431576,-111.876435","label":"Riverview Lake Fountain"},"id1451012368680":{"guid":"e6047fa2f9fa4f2697c3a55802671716.16","latlng":"33.432087,-111.875095","label":"Welcome To Mesa Park"},"id1451012371856":{"guid":"ed430129db554f5e9d55941788b6d359.16","latlng":"33.432563,-111.8748","label":"Nexus of Children's Power"},"id1451012375201":{"guid":"cd89574d3bfc4e4080d6284c718dbe49.16","latlng":"33.432569,-111.874052","label":"In Honor of Window Rock"},"id1451012378135":{"guid":"a037de07949b427da6b23fc74546c21e.16","latlng":"33.43224,-111.874504","label":"Mesa Riverview Park Dedication Plaque"},"id1451012381220":{"guid":"3d10523a7f00439bbbd082a32506f5df.16","latlng":"33.432201,-111.874862","label":"Straw Water Fountains "},"id1451012385781":{"guid":"3f26e6e31c6b4150a8a8feb8577a2769.16","latlng":"33.431972,-111.874917","label":"South Riverview Playground Gazebo"},"id1451012390243":{"guid":"58c43b3cd8604f6a913768d90b0262a5.16","latlng":"33.431951,-111.874638","label":"Riverview Water Works"},"id1451012394020":{"guid":"01708584e0fc4b0bad3fd851402013e3.16","latlng":"33.431889,-111.874379","label":"Childrens Web"},"id1451012397389":{"guid":"61e55d12fa2249c9ab8242fcc99ad2fe.16","latlng":"33.432102,-111.874155","label":"Pueblo Climbing Structure"},"id1451012401504":{"guid":"1bdca773f3b846c0834cae3286f2eeeb.16","latlng":"33.431382,-111.874732","label":"Web Crawler"},"id1451012404661":{"guid":"86aab1da894c4b52887cb3360525d3a6.16","latlng":"33.431343,-111.875293","label":"Pillar of Almost Shade"},"id1451012410120":{"guid":"ee4a0fb0ad0145f0a1441b52b62d4be6.16","latlng":"33.430739,-111.875321","label":"L3 Resonator Array"},"id1451012414724":{"guid":"dabde7c24a8c4ed494d791409353ffec.16","latlng":"33.430746,-111.875959","label":"Spiral Hill"},"id1451012419909":{"guid":"d75a6236ab9b41918ded3f6ac35e77b8.16","latlng":"33.43035,-111.875665","label":"Riverview Lake Southeast Fishing Sign"},"id1451012425118":{"guid":"92c0084c3e9a4f2381c77c63bad0feca.16","latlng":"33.429772,-111.874652","label":"Riverview Waterfall"},"id1451012432554":{"guid":"ca41313181b94770911c68ff954c3c47.16","latlng":"33.429568,-111.87468","label":"Mesa Riverview Entrance"},"id1451012438090":{"guid":"4488f5c7ae124a368428413c670a676d.16","latlng":"33.429816,-111.873772","label":"Mesa Riverview"},"id1451012459196":{"guid":"5d2fb1e2596349039a39985fc9996644.16","latlng":"33.432264,-111.873224","label":"Mesa Riverview Entrance Sign"},"id1451012462674":{"guid":"10f73b8e02914fd68ba5d4591205c329.16","latlng":"33.432162,-111.870404","label":"Shepler's Rearing Horse"},"id1451012468273":{"guid":"5ed4d1fe95b748e6919ea3940983a58f.16","latlng":"33.434539,-111.869502","label":"Water Tile Mural"},"id1451012471298":{"guid":"74e67ce1a0e44e168d2c570ef9ea265e.16","latlng":"33.433723,-111.86776","label":"Desert Scene Electric Box"},"id1451012475061":{"guid":"64c2951bb84e49e79d69c4a5ef465aef.16","latlng":"33.435558,-111.867371","label":"Bass Pro Puma Mural"},"id1451012478172":{"guid":"a865b966b27b4469947b1e3182b854d3.16","latlng":"33.435694,-111.866853","label":"Water Feature Display"},"id1451012481204":{"guid":"10ace3b98e334db28f050a526f468189.16","latlng":"33.435814,-111.866629","label":"Bass Pro Duck Pond"},"id1451012485522":{"guid":"9a5a8ee40bdf4f3f9953fbf5b77123aa.16","latlng":"33.435116,-111.865174","label":"Stained Glass Chapel"},"id1451012488229":{"guid":"11368f44f40a4fd6a4b6a722bb603e08.11","latlng":"33.435394,-111.863706","label":"Cinemark Fountain"},"id1451012491759":{"guid":"276451165d4a4aa1983785384820fde7.16","latlng":"33.435172,-111.863441","label":"Cinemark Wall Mural"},"id1451012496449":{"guid":"726a1efb1a6a4a1585cbafba507c84d7.16","latlng":"33.435736,-111.865781","label":"Toby Keith's I Love This Bar & Grill"},"id1451012500499":{"guid":"4ecd8cb586eb432aa4cfadbd7782cec1.16","latlng":"33.436313,-111.864377","label":"Bass Pro Lamp"},"id1451012507797":{"guid":"fd7cddf652fd4e92acb50e465a59b753.16","latlng":"33.436051,-111.866415","label":"Horse Rider Statue"},"id1451012512174":{"guid":"87358bd0f83d42469ca0bab39379aa09.16","latlng":"33.436768,-111.867081","label":"Antlers Ahoy"},"id1451012515511":{"guid":"6122a1d2276c47a3bac8eba5caf1d655.16","latlng":"33.438146,-111.866733","label":"Mesa Riverview Bio Swale"},"id1451012518823":{"guid":"caf59e5840df4a8a989fba908872017c.16","latlng":"33.436572,-111.866563","label":"Elk Waterfall"},"id1451012522307":{"guid":"61030c7214c94e00a69ddb9a5cc861d3.16","latlng":"33.437103,-111.866721","label":"Sonoran Desert Preserve"},"id1451012526497":{"guid":"0d4188833f9441e9aa9929a5ef895a2f.16","latlng":"33.437071,-111.865708","label":"Buck Lamp Post"},"id1451012529700":{"guid":"f6a6e71b8663403d86be5b22c9b301d5.16","latlng":"33.436526,-111.865934","label":"Owl Mural"}}}}}
