{"maps":{"idOthers":{"label":"Others","state":1,"bkmrk":{}}},"portals":{"idOthers":{"label":"Others","state":1,"bkmrk":{"id1451012293646":{"guid":"3b689006d01e44ab899c9a38df063c83.16","latlng":"33.43018,-111.888838","label":"Walkway to Happiness"},"id1451012296696":{"guid":"20e7f74ef7474c7482a496323cbb56cc.16","latlng":"33.429717,-111.888772","label":"Maricopa County Animal Care and Control Mural"},"id1451012300655":{"guid":"27fd07af7234407fa479ba67e3be35a9.16","latlng":"33.42946,-111.889037","label":"Love Play Adopt Mural"},"id1451012306462":{"guid":"0b8ebf5eb45745e4938ec10f6224292b.16","latlng":"33.430558,-111.884759","label":"Cubs Spring Training Facility"},"id1451012310421":{"guid":"44f8cb39d64b4b5eac13e002d8360c21.16","latlng":"33.429761,-111.882427","label":"Cubs Spring Training Stadium"},"id1451012313481":{"guid":"4c70aadfa1514ae5a8c2c98a82356e5d.16","latlng":"33.429571,-111.881438","label":"First Base Gate"},"id1451012317185":{"guid":"f2916d6be57944c98087baa809d442ba.16","latlng":"33.430318,-111.882615","label":"Home Plate Gate"},"id1451012320694":{"guid":"cc7e9bf94ee84e4e95166c940667fd15.16","latlng":"33.430277,-111.88215","label":"Cubs Logos Through Time"},"id1451012324791":{"guid":"405ed6f7007941a9aa30c0f32ac6d67d.16","latlng":"33.430141,-111.881474","label":"First Base Gate"},"id1451012333658":{"guid":"9aafaddb399a4472bca63b5adb8d12d4.16","latlng":"33.430534,-111.881297","label":"Hibernation Vacation"},"id1451012339525":{"guid":"ef435639b56a45fbb813081cf72aeff4.16","latlng":"33.430963,-111.880405","label":"Right Field Gate"},"id1451012343451":{"guid":"3f39335227224879ba4267e13b5ffe26.16","latlng":"33.432372,-111.880848","label":"Center Field Gate"},"id1451012349418":{"guid":"2d18c4d6022847daa629b776543e544f.16","latlng":"33.432269,-111.876379","label":"Riverview Pictures Of Fishes"},"id1451012354720":{"guid":"4848ead3a1a04535987d3d5f1a7c1431.16","latlng":"33.431609,-111.876448","label":"Riverview Fountain"},"id1451012358760":{"guid":"4b0ecdcb12824e219acff3f912619b2f.16","latlng":"33.431592,-111.876411","label":"Color Changing Fountain"},"id1451012363170":{"guid":"62f7287836e547318655c8e8c564274b.16","latlng":"33.431576,-111.876435","label":"Riverview Lake Fountain"},"id1451012368680":{"guid":"e6047fa2f9fa4f2697c3a55802671716.16","latlng":"33.432087,-111.875095","label":"Welcome To Mesa Park"},"id1451012371856":{"guid":"ed430129db554f5e9d55941788b6d359.16","latlng":"33.432563,-111.8748","label":"Nexus of Children's Power"},"id1451012375201":{"guid":"cd89574d3bfc4e4080d6284c718dbe49.16","latlng":"33.432569,-111.874052","label":"In Honor of Window Rock"},"id1451012378135":{"guid":"a037de07949b427da6b23fc74546c21e.16","latlng":"33.43224,-111.874504","label":"Mesa Riverview Park Dedication Plaque"},"id1451012381220":{"guid":"3d10523a7f00439bbbd082a32506f5df.16","latlng":"33.432201,-111.874862","label":"Straw Water Fountains "},"id1451012385781":{"guid":"3f26e6e31c6b4150a8a8feb8577a2769.16","latlng":"33.431972,-111.874917","label":"South Riverview Playground Gazebo"},"id1451012390243":{"guid":"58c43b3cd8604f6a913768d90b0262a5.16","latlng":"33.431951,-111.874638","label":"Riverview Water Works"},"id1451012394020":{"guid":"01708584e0fc4b0bad3fd851402013e3.16","latlng":"33.431889,-111.874379","label":"Childrens Web"},"id1451012397389":{"guid":"61e55d12fa2249c9ab8242fcc99ad2fe.16","latlng":"33.432102,-111.874155","label":"Pueblo Climbing Structure"},"id1451012401504":{"guid":"1bdca773f3b846c0834cae3286f2eeeb.16","latlng":"33.431382,-111.874732","label":"Web Crawler"},"id1451012404661":{"guid":"86aab1da894c4b52887cb3360525d3a6.16","latlng":"33.431343,-111.875293","label":"Pillar of Almost Shade"},"id1451012410120":{"guid":"ee4a0fb0ad0145f0a1441b52b62d4be6.16","latlng":"33.430739,-111.875321","label":"L3 Resonator Array"},"id1451012414724":{"guid":"dabde7c24a8c4ed494d791409353ffec.16","latlng":"33.430746,-111.875959","label":"Spiral Hill"},"id1451012419909":{"guid":"d75a6236ab9b41918ded3f6ac35e77b8.16","latlng":"33.43035,-111.875665","label":"Riverview Lake Southeast Fishing Sign"},"id1451012425118":{"guid":"92c0084c3e9a4f2381c77c63bad0feca.16","latlng":"33.429772,-111.874652","label":"Riverview Waterfall"},"id1451012432554":{"guid":"ca41313181b94770911c68ff954c3c47.16","latlng":"33.429568,-111.87468","label":"Mesa Riverview Entrance"},"id1451012438090":{"guid":"4488f5c7ae124a368428413c670a676d.16","latlng":"33.429816,-111.873772","label":"Mesa Riverview"},"id1451012459196":{"guid":"5d2fb1e2596349039a39985fc9996644.16","latlng":"33.432264,-111.873224","label":"Mesa Riverview Entrance Sign"},"id1451012462674":{"guid":"10f73b8e02914fd68ba5d4591205c329.16","latlng":"33.432162,-111.870404","label":"Shepler's Rearing Horse"},"id1451012468273":{"guid":"5ed4d1fe95b748e6919ea3940983a58f.16","latlng":"33.434539,-111.869502","label":"Water Tile Mural"},"id1451012471298":{"guid":"74e67ce1a0e44e168d2c570ef9ea265e.16","latlng":"33.433723,-111.86776","label":"Desert Scene Electric Box"},"id1451012475061":{"guid":"64c2951bb84e49e79d69c4a5ef465aef.16","latlng":"33.435558,-111.867371","label":"Bass Pro Puma Mural"},"id1451012478172":{"guid":"a865b966b27b4469947b1e3182b854d3.16","latlng":"33.435694,-111.866853","label":"Water Feature Display"},"id1451012481204":{"guid":"10ace3b98e334db28f050a526f468189.16","latlng":"33.435814,-111.866629","label":"Bass Pro Duck Pond"},"id1451012485522":{"guid":"9a5a8ee40bdf4f3f9953fbf5b77123aa.16","latlng":"33.435116,-111.865174","label":"Stained Glass Chapel"},"id1451012488229":{"guid":"11368f44f40a4fd6a4b6a722bb603e08.11","latlng":"33.435394,-111.863706","label":"Cinemark Fountain"},"id1451012491759":{"guid":"276451165d4a4aa1983785384820fde7.16","latlng":"33.435172,-111.863441","label":"Cinemark Wall Mural"},"id1451012496449":{"guid":"726a1efb1a6a4a1585cbafba507c84d7.16","latlng":"33.435736,-111.865781","label":"Toby Keith's I Love This Bar & Grill"},"id1451012500499":{"guid":"4ecd8cb586eb432aa4cfadbd7782cec1.16","latlng":"33.436313,-111.864377","label":"Bass Pro Lamp"},"id1451012507797":{"guid":"fd7cddf652fd4e92acb50e465a59b753.16","latlng":"33.436051,-111.866415","label":"Horse Rider Statue"},"id1451012512174":{"guid":"87358bd0f83d42469ca0bab39379aa09.16","latlng":"33.436768,-111.867081","label":"Antlers Ahoy"},"id1451012515511":{"guid":"6122a1d2276c47a3bac8eba5caf1d655.16","latlng":"33.438146,-111.866733","label":"Mesa Riverview Bio Swale"},"id1451012518823":{"guid":"caf59e5840df4a8a989fba908872017c.16","latlng":"33.436572,-111.866563","label":"Elk Waterfall"},"id1451012522307":{"guid":"61030c7214c94e00a69ddb9a5cc861d3.16","latlng":"33.437103,-111.866721","label":"Sonoran Desert Preserve"},"id1451012526497":{"guid":"0d4188833f9441e9aa9929a5ef895a2f.16","latlng":"33.437071,-111.865708","label":"Buck Lamp Post"},"id1451012529700":{"guid":"f6a6e71b8663403d86be5b22c9b301d5.16","latlng":"33.436526,-111.865934","label":"Owl Mural"},"id1451012642212":{"guid":"7f1565bfdfa448f789dc1df7601c9238.16","latlng":"33.442998,-111.85654","label":"Little Liberty"},"id1451012645257":{"guid":"c0d56192e19d4d7fae694b957ea5a69d.16","latlng":"33.444531,-111.856135","label":"Totem Pole"},"id1451012659196":{"guid":"9ecf3d57d14b4a99ac83598bc2cdf26f.16","latlng":"33.445742,-111.844106","label":"Church Spire"},"id1451012662666":{"guid":"9f95091808624ac2aa882935b3810a76.16","latlng":"33.445974,-111.844438","label":"LDS Church"},"id1451012666287":{"guid":"cca9d1b061694c15a273d20566795435.16","latlng":"33.443801,-111.840249","label":"Circle K 1550 N Country Club Drive"},"id1451012672759":{"guid":"3bafa33dc1c046bb8a888bf0fd466bfe.16","latlng":"33.43886,-111.839665","label":"City of Mesa Cemetery"},"id1451012689303":{"guid":"c4679d7ed5994644ba0550a5debc682a.16","latlng":"33.435892,-111.84317","label":"Brown Plaza Fountain"},"id1451012693280":{"guid":"ebc3f781d9a145a48c5832ff6333fcda.16","latlng":"33.433746,-111.844719","label":"Ruins Of Mesa"},"id1451012696125":{"guid":"e01451f726c94f0b8014b0dd66960f25.16","latlng":"33.433319,-111.84487","label":"Mesa Grande Sign"},"id1451012700584":{"guid":"66bcc8cbf23945b6b4e6b1266d1155d4.12","latlng":"33.433273,-111.845842","label":"Mesa Grande"},"id1451012706025":{"guid":"463ef212cfb9402a8eefad8de35d3ba4.16","latlng":"33.429306,-111.844851","label":"Humanist Community Center"},"id1451012708846":{"guid":"e9f67d18d8bb4aa980e66b1b1783fc11.16","latlng":"33.429857,-111.839655","label":"First Christian Church"},"id1451012712170":{"guid":"7d022012822e4f99939cea95bffae702.16","latlng":"33.429898,-111.839209","label":"First Christian Chruch"},"id1451012733526":{"guid":"dd7cc20f08864475abb8248a2e1df3a7.16","latlng":"33.430961,-111.855512","label":"Freedom Park Flag Mural"},"id1451012737307":{"guid":"f045ae2f7df044148e34575946d3ecbc.12","latlng":"33.430483,-111.855572","label":"City of Mesa Fire Station 218"},"id1451012741491":{"guid":"ccad62d679e341d4947449c483f8507d.16","latlng":"33.430045,-111.855666","label":"Circle K 1154 W 8th Street"},"id1451012745324":{"guid":"f520c46283534888b75e2808e55d90cf.16","latlng":"33.430625,-111.852458","label":"The Church of Jesus Christ of Latter Day Saints"},"id1451012749158":{"guid":"78d70bf072cb49ca84b3958092530992.16","latlng":"33.430267,-111.852388","label":"Truck Bed Fountain"},"id1451014118400":{"guid":"9985150d27af4c0b8712a9ba895b6122.16","latlng":"33.439326,-111.836036","label":"Mesa Cemetery"},"id1451014122530":{"guid":"2115de396af14fbd9955e37c6d825119.16","latlng":"33.439588,-111.835918","label":"Persons Unknown"},"id1451014127557":{"guid":"54fe9e5e50264e7fa9e4b6a43c2f6b79.16","latlng":"33.438722,-111.834265","label":"Per Ardua Ad Astra"},"id1451014131703":{"guid":"4a94ecbf18414712ae2f6cb1a253d48e.16","latlng":"33.438017,-111.833993","label":"Mesa Cemetery Memorial"},"id1451014135937":{"guid":"a67e005d8f6941eb8ec6031e6aa894ac.16","latlng":"33.437267,-111.832478","label":"Woodmen of the World Memorial"},"id1451014139467":{"guid":"f4e57a0da714432095470bdb3352dc2b.16","latlng":"33.437598,-111.831706","label":"Hugh Stapley"},"id1451014143913":{"guid":"6d6c16fe5cd04160a5584ed94b50ccdd.16","latlng":"33.438224,-111.83169","label":"Steves Musical Grave"},"id1451014153189":{"guid":"03361475752848f689d1ca1fe115e172.16","latlng":"33.438418,-111.831522","label":"Yee"},"id1451014161599":{"guid":"64e48476fb924bbb8da231b043385ad8.16","latlng":"33.438146,-111.831022","label":"Hohokam Stadium "},"id1451014166559":{"guid":"97c96633ea454a30a62ee451a3e238a3.12","latlng":"33.437024,-111.831583","label":"Irrigation"},"id1451014170123":{"guid":"3738a4c2c1ec4a8db7528e864e80f089.16","latlng":"33.439754,-111.831669","label":"Naves Praying Angel"},"id1451014173027":{"guid":"52b664cb5a69468da61c6d3200427746.16","latlng":"33.439909,-111.831849","label":"Tree of Life"},"id1451014176009":{"guid":"566a190014ae4063a74191254d20a70b.16","latlng":"33.440281,-111.831448","label":"Eugene Staebeil Memorial Bench"},"id1451014178289":{"guid":"87d4e86ec7964e7fa0152ae64fd1fb2f.12","latlng":"33.440366,-111.831048","label":"Indian dancer"},"id1451014181257":{"guid":"cebbf9296355472b9592b29703dd3fc6.16","latlng":"33.4396,-111.83144","label":"Cedomir Pesakovic Bust"},"id1451014185944":{"guid":"da1976c62505437f978b0880387cd278.16","latlng":"33.438705,-111.831368","label":"City of Mesa Cemetary"},"id1451014191797":{"guid":"c60e6d1d8c1c46c79a25aaa280326083.16","latlng":"33.437807,-111.830385","label":"Hohokam Park"},"id1451014200098":{"guid":"36c39276d3a646a8a023ed71161bb562.16","latlng":"33.444047,-111.835358","label":"Whitman Park South"},"id1451014210333":{"guid":"910e6feeea374ca09b63132c0858ddae.16","latlng":"33.441481,-111.835703","label":"Lds Church 1430"},"id1451014217729":{"guid":"1e748641ef2049ea8fe87c29f1b41e0c.16","latlng":"33.447171,-111.836194","label":"Park Play Ground"},"id1451014221236":{"guid":"b9097a0f2a2d4cc0a1e92833194641ac.16","latlng":"33.447258,-111.835592","label":"Whittman Park"},"id1451014224126":{"guid":"80f72911db184ee1badfb358e0a36176.16","latlng":"33.44747,-111.835345","label":"C.O.M. Park"},"id1451014235504":{"guid":"1e03702d67d34a39a623a4370e2b6c86.16","latlng":"33.449849,-111.842286","label":"LDLP  Showroom"},"id1451014245970":{"guid":"128c5134621548f4b9444b7586edd70f.16","latlng":"33.452059,-111.839317","label":"McDonald's Fountain"},"id1451014252866":{"guid":"c086428c8763410cbb0e664a923b99da.16","latlng":"33.455605,-111.839421","label":"Mesa Overpass"},"id1451014259943":{"guid":"f7bcbe6489b742cd8f6a658e154bd3aa.16","latlng":"33.456118,-111.857021","label":"Salt River Pima Indian Community Sign"},"id1451014264450":{"guid":"ec9e2c8285fb438582fb90aba46885f8.16","latlng":"33.458512,-111.840012","label":"DPS Rock Sign"},"id1451014283662":{"guid":"80c0e09bc11b41dc9cfbe6d4492b15db.16","latlng":"33.465593,-111.864882","label":"We the People"},"id1451014288454":{"guid":"2bfe61a9a1f0439d872c1f02f8e96c20.16","latlng":"33.4655,-111.843092","label":"Salt River Pima Indian Community"},"id1451014292370":{"guid":"d31226b4885c45819e67278a2e47aab1.16","latlng":"33.466225,-111.842537","label":"JR's Kokopelli"},"id1451014297686":{"guid":"32b1e006f1ca4e639c51e37a02731793.16","latlng":"33.471083,-111.848209","label":"Salt River LDS "},"id1451014302346":{"guid":"be86251c67ae41a18a54b50135273352.12","latlng":"33.466788,-111.864361","label":"Salt River Post Office"},"id1451014307897":{"guid":"f4c83326c4d34e72ac46935b7ae0f720.16","latlng":"33.467192,-111.865741","label":"Salt River Presbyterian Church"},"id1451014313388":{"guid":"a349d5318df54416a82fff27e3e95b8b.16","latlng":"33.468037,-111.865453","label":"Salt River Presbyterian Church"},"id1451014316049":{"guid":"0550305c3d114da69ba86a4dede43d97.16","latlng":"33.468314,-111.865091","label":"Rallo Baptisto Teen Center Mural"},"id1451014318907":{"guid":"183f2de0ce0744c1b6d00195e76f5683.12","latlng":"33.468389,-111.865877","label":"Salt River Tribal Library"},"id1451014324654":{"guid":"385051621f6b437dba14c6dd44806e65.16","latlng":"33.469616,-111.86485","label":"Salt River Water Tower"},"id1451014348228":{"guid":"d6632b6fdcb24923b7495e87bf754b1d.16","latlng":"33.453518,-111.885405","label":"Spotted Lights Water Fountain"},"id1451014356872":{"guid":"16829159f10f4d6c8e340f0cfe08ef34.16","latlng":"33.453658,-111.885108","label":"Wall Barrier Waterfalls"},"id1451014359947":{"guid":"faa9521799744d06a7635c002c5a37d1.16","latlng":"33.454111,-111.884877","label":"Waterfall Tower"},"id1451014363950":{"guid":"9aa33a62525d489f9e5ebbbd4aa7bda3.16","latlng":"33.454284,-111.885525","label":"Make a Wish Foundation Rotating Water Ball"},"id1451014369147":{"guid":"67a2a29f2ae64b0ab827ba641d06557a.16","latlng":"33.454777,-111.889017","label":"Casino Arizona"},"id1451014388193":{"guid":"9d6c50a36e6b43948e24521f4596da05.16","latlng":"33.480366,-111.889093","label":"Pima Freeway Statue"},"id1451014391543":{"guid":"4ea22a8655c242f3b6f9fddb6629510b.16","latlng":"33.480531,-111.887927","label":"Singh Farms"},"id1451014394675":{"guid":"010cc123b91a40f693b1bf47e66625f5.16","latlng":"33.483593,-111.868729","label":"Salt River Memorial Hall"},"id1451014397754":{"guid":"5fa93debbf7245db8d971936d1649170.16","latlng":"33.483453,-111.866157","label":"St. Francis of Assisi Catholic Church"},"id1451014437625":{"guid":"81b0d4ff13884c6caa9b280ab3b86a91.16","latlng":"33.473688,-111.804687","label":"Red Mountain Festival Grounds"},"id1451014440420":{"guid":"e062d47ba00443e4ac3266e4901000f0.16","latlng":"33.474114,-111.801299","label":"Lehi Presbyterian Church"},"id1451014443395":{"guid":"84ef622dc07242aea489360aaf531305.16","latlng":"33.474104,-111.798052","label":"Lehi Church Of The Nazarene"},"id1451014446946":{"guid":"52d93ea6c23e4f1aaa1ce8c54ea5f9d4.16","latlng":"33.466799,-111.797826","label":"Ferguson Memorial Baptist Church"},"id1451014451117":{"guid":"ce86ad9ba6524db0921bec2b827009eb.16","latlng":"33.461764,-111.810192","label":"A Boy and His Dog"},"id1451014457772":{"guid":"b8b93b96d563419a97d14de3f08d8bfc.16","latlng":"33.459209,-111.812917","label":"Lehi LDS Church"},"id1451014464567":{"guid":"2c38c8d0cd8e482aadfc5b9e3bdce328.12","latlng":"33.459068,-111.813449","label":"Site of Old Fort Utah"},"id1451014469070":{"guid":"732e59b314b84c9c89cfbb619375f45f.12","latlng":"33.458516,-111.813271","label":"Mesa Historical Museum"},"id1451014476635":{"guid":"a4a53359133246e5991c6118703870b9.16","latlng":"33.451101,-111.830805","label":"Circle K 11 E McKellips Rd"},"id1451014479713":{"guid":"d5c1c0988374448ab80c0f047503b598.12","latlng":"33.453297,-111.813788","label":"Mesa Fire Station 211"},"id1451014485120":{"guid":"eae688d60e284636bfda3ab93c4be68b.16","latlng":"33.44808,-111.826714","label":"Park Rules Sign"},"id1451014488918":{"guid":"9747247ee9724e15addbe71ede35ff05.16","latlng":"33.446773,-111.822749","label":"Fountain of Life Church"},"id1451014494160":{"guid":"7b367661e19c41539569c222a329440e.16","latlng":"33.445176,-111.826694","label":"Church On Pasadena"},"id1451014506017":{"guid":"c8020f0aceac49b6b193798200707aa7.16","latlng":"33.448171,-111.815988","label":"Hohokam Pool Arch"},"id1451014508569":{"guid":"d83221a663d349b99ad3044d0e743a4f.16","latlng":"33.449739,-111.805293","label":"Church of the Latter Day Saints"},"id1451014513521":{"guid":"cb9d937071704a4d8116d1364fdb6f8e.16","latlng":"33.447465,-111.813614","label":"The Wrench Men"},"id1451014516238":{"guid":"0c10c324e157497b935a01b69332e002.16","latlng":"33.446198,-111.814036","label":"Park Of The Canals Entrance "},"id1451014519724":{"guid":"ca4b9d2bbbe3479ca922e0a2baeadb6a.16","latlng":"33.444651,-111.812568","label":"Park Rules Sign"},"id1451014523372":{"guid":"63da5ab0052144b2bc3620b37ab2ff67.12","latlng":"33.445887,-111.814785","label":"Prehistoric Irrigation"},"id1451014531619":{"guid":"ee878583bf3e4c65847baf9524d6d14b.16","latlng":"33.446291,-111.814981","label":"Park Of The Canals playground "},"id1451014534871":{"guid":"062969c307fb493e9af625db15730fc3.16","latlng":"33.445385,-111.814532","label":"Desert Botanical Garden"},"id1451014537786":{"guid":"f6b2c145a6e84913bd5848eb30b4aa6c.16","latlng":"33.445372,-111.814975","label":"Park of the Canals"},"id1451014543894":{"guid":"fec87c358b08446da4f37449244f6c0d.16","latlng":"33.443164,-111.80642","label":"Three Fountains"},"id1451014548265":{"guid":"5f999015bbcb42bb90db2791b704de72.16","latlng":"33.43819,-111.814111","label":"Basin Park On Horne"},"id1451014551466":{"guid":"61be98bda5114783975688949de9b48b.16","latlng":"33.437266,-111.807298","label":"Five Spheres"},"id1451014555274":{"guid":"7d7471c27bdc42419565b7f9cddddbb1.11","latlng":"33.436773,-111.804965","label":"White Stone Horse"},"id1451014557801":{"guid":"49574aaeeb3c4cad8f6a480e04958264.16","latlng":"33.437213,-111.816068","label":"Consolodated Canal Marker"},"id1451014561266":{"guid":"083c82cc56e14d1cb8dca83d9541fbef.16","latlng":"33.437112,-111.814763","label":"Park At Canal Intersection"},"id1451014565557":{"guid":"5a9e139d53b846a59a6fe9508e6c25dd.16","latlng":"33.435664,-111.810914","label":"Church of Jesus Christ of Latter Day Saints"},"id1451014568787":{"guid":"c387c20252a6418ea884b42d0e5fd207.16","latlng":"33.437165,-111.802515","label":"Lakeside Waterfall"},"id1451014574374":{"guid":"ab337911c72147479e4eb2dc4c3a7f9d.16","latlng":"33.431272,-111.803923","label":"Learning Foundation"},"id1451014577028":{"guid":"4afa95aa9821437faac1f8216bb50de4.16","latlng":"33.431353,-111.804993","label":"First Southern Baptist Church"},"id1451014579960":{"guid":"b403e76a75264bd0b86b7a9e9fd24288.16","latlng":"33.433855,-111.814134","label":"Desert Heritage Church"},"id1451014583003":{"guid":"2f1e68f39d774beb9f65d5a27a3f8adb.16","latlng":"33.43246,-111.81413","label":"Kino Aquatic Complex"},"id1451014586264":{"guid":"13f7524fc4fe4b508f63c2445a56676c.16","latlng":"33.430081,-111.821709","label":"Porter Park"},"id1451014589719":{"guid":"50b6b7c5d2484ba99763003267c5810d.16","latlng":"33.430359,-111.82222","label":"Porter Park Dino Mural"},"id1451014593138":{"guid":"0f530b64d8984b04b3b171e6496abbe7.16","latlng":"33.429678,-111.822945","label":"Fitch Park"},"id1451014597645":{"guid":"dfbef8d4a2274baba3e5282078e86845.16","latlng":"33.435486,-111.824907","label":"Grand Fountain"},"id1451014620317":{"guid":"41c8f8a66d6c49febbb43d57ebaf4289.16","latlng":"33.441419,-111.800201","label":"Candlelight Park"},"id1451014623652":{"guid":"03bcc291a89b41c4ad87249bb567c460.16","latlng":"33.442158,-111.796176","label":"LDS Church "},"id1451014627072":{"guid":"4ecc57177a28463389e8e2aac4124390.16","latlng":"33.444834,-111.791592","label":"Chaparral Basin Park "},"id1451014630839":{"guid":"60eed9bacc1f49769df61cfe5c1660ea.16","latlng":"33.441346,-111.787656","label":"Church Of The God Of Prophecy "},"id1451014636129":{"guid":"132a56fadf074c90915afbefc85ce447.16","latlng":"33.445696,-111.785713","label":"Chaparral Park"},"id1451014646745":{"guid":"292c00938f7e4a138c8574fa2ac93fe4.16","latlng":"33.445824,-111.787564","label":"Chaparral Park"},"id1451014650043":{"guid":"1dc520c3b0b645bbb7624697a7408b9d.16","latlng":"33.447903,-111.787536","label":"Immanuel Presbyterian Church"},"id1451014658998":{"guid":"cbfc678c325c4e39984f6ae4ddbe3629.16","latlng":"33.451308,-111.787203","label":"Circle K 2011 E McKellips Road"},"id1451014661726":{"guid":"0ec286830b81434a90504d372868a793.16","latlng":"33.45039,-111.779262","label":"LDS Church"},"id1451014665383":{"guid":"bc5444c99a854e5ab44e98215a178d3f.16","latlng":"33.452661,-111.788013","label":"Copper Trees"},"id1451014668409":{"guid":"1f53284fe82d47508007a2dfcc308acc.16","latlng":"33.451532,-111.769821","label":"Genie Car Wash"},"id1451014671413":{"guid":"9f61808c6668431ca74c67263fcfab6a.16","latlng":"33.447453,-111.771047","label":"Lavendar & Old Lace"},"id1451014675003":{"guid":"f3b4e62975b64074a4e316d1724d8a11.16","latlng":"33.447334,-111.771802","label":"Old Lace Gazebo"},"id1451014679450":{"guid":"90eebd9d62fa424cbeb404f9fae099e7.16","latlng":"33.455489,-111.770501","label":"Hermosa Vista Park"},"id1451014682213":{"guid":"90cb786877604f278697f95f1ec8a6bb.16","latlng":"33.460377,-111.787634","label":"The Church of Jesus Christ of Latter-day Saints"},"id1451014685399":{"guid":"03372965523c44af9046908c12279f13.16","latlng":"33.455711,-111.796653","label":"LDS Church"},"id1451014690651":{"guid":"bf7837da99e042d784fdc5a9c6d7cf3c.16","latlng":"33.441151,-111.772141","label":"Mountain View High School"},"id1451014693813":{"guid":"b8c977bf65a24c42bf65c063c4e12292.16","latlng":"33.4384,-111.770614","label":"LDS Seminary at Mountain View"},"id1451014696606":{"guid":"ff9f633646a54762a552d9d10d867cc0.16","latlng":"33.443398,-111.765963","label":"Kensington Groves"},"id1451014700791":{"guid":"f5d7e3e425ad4fc0b30ee2f50807faf6.16","latlng":"33.440756,-111.764825","label":"Kensington Grove Park"},"id1451014705310":{"guid":"3fd68cdbfe2045399da70196533cdbda.16","latlng":"33.450914,-111.763583","label":"Tia Rosa Mural"},"id1451014708412":{"guid":"b373fb7726e34d4db0e9488b7032f0c1.16","latlng":"33.457036,-111.770139","label":"Statue of Mary the Virgin"},"id1451014713636":{"guid":"dd11ab20fa2f4816948ad504ce641eea.16","latlng":"33.457637,-111.770209","label":"Celtic Iron Cross "},"id1451014716086":{"guid":"57c5a0d7e6d641859f8b79a3cbefe492.16","latlng":"33.457425,-111.769551","label":"Marble Columns -Stations of the Cross"},"id1451014720364":{"guid":"ca8c9d0110b1462582695214edf2d7d7.16","latlng":"33.46327,-111.770964","label":"Lindsay Building"},"id1451014723049":{"guid":"68a9fa1fbe7b4c89a0fc6497fbe411e8.16","latlng":"33.464273,-111.763439","label":"Doctor Who Sidewalk Mural"},"id1451014725799":{"guid":"c821044ce52445df93b4f151c49573b9.16","latlng":"33.462272,-111.761675","label":"The Church of Jesus Christ of Latter Day Saints"},"id1451014728237":{"guid":"5c6ff736155c4beaaf2cbf13b4c216a7.11","latlng":"33.46616,-111.761219","label":"Bethlehem Lutheran Church stai"},"id1451014731645":{"guid":"c604b9bba8fe4fe09e2477d193bdb5aa.16","latlng":"33.464705,-111.779239","label":"Shepards Park South Entrance"},"id1451014734262":{"guid":"da3231ed5e3b40da8aa8aad1ef5c51a9.16","latlng":"33.466331,-111.777098","label":"Shepherds Park"},"id1451014741132":{"guid":"a0f76d6f0075464e9cbfbd25c033700c.16","latlng":"33.45112,-111.763267","label":"Triple Headed Koi Fountain "},"id1451014753303":{"guid":"0f46adb15e9240789b9741233eb06c92.16","latlng":"33.45223,-111.75105","label":"TRI Fountain"},"id1451014756500":{"guid":"50f227d2cafe4d52865adbaedfdf18f4.11","latlng":"33.454444,-111.753638","label":"Mesa Hermosa Estates"},"id1451014759969":{"guid":"56a015184c6344ee8f90c8ae790a10ab.11","latlng":"33.457546,-111.753005","label":"Mesa Spyglass Estates"},"id1451014767055":{"guid":"c6ff7caa30da4b9a9e56a058fb88f313.16","latlng":"33.449875,-111.743124","label":"Park Rules Sign"},"id1451014770189":{"guid":"49c5f3ebfe164250826968134c3b209d.16","latlng":"33.451679,-111.741692","label":"Gene Autry Park"},"id1451014773558":{"guid":"5630554fbea14672a544dbb44a68a1ae.16","latlng":"33.45073,-111.743111","label":"Gene Autry Sports Complex"},"id1451014776996":{"guid":"f51ec0401d3944c585ccf2f6d400e02c.16","latlng":"33.450366,-111.740801","label":"Mesa Park Entrances "},"id1451014780527":{"guid":"0dafde2e53b9402cbedc96006b60a33a.16","latlng":"33.450361,-111.740341","label":"World Champion AZ Rattlers Arena Football Train Facility"},"id1451014785876":{"guid":"647853527f8f4f72aaea3dfea2c697c6.16","latlng":"33.466636,-111.742608","label":"Stonebridge"},"id1451014789376":{"guid":"3f7d5dacd52b4ee8ad9a204633107fc8.16","latlng":"33.466708,-111.758101","label":"Church of Jesus Christ of Latter Day Saints"},"id1451014797513":{"guid":"adfe47fc640b443293b5e20908d2cb1e.16","latlng":"33.47307,-111.74322","label":"Sculpted Metal Gate"},"id1451014801640":{"guid":"bf061bdc9ff346d8bd293ed102f6b4d1.16","latlng":"33.475937,-111.741979","label":"Quail RUN park"},"id1451014804554":{"guid":"88f3f6e7b1114bca81d32db22afc440f.16","latlng":"33.475215,-111.740831","label":"Archway Entrance to Baseball Field"},"id1451014807014":{"guid":"9306bca64307467990c8b5842eaca9d2.16","latlng":"33.475244,-111.739846","label":"Quail Run Bark Place Dog Park"},"id1451014810440":{"guid":"89a6e22208724c18a0794495e8b230d8.16","latlng":"33.475072,-111.73976","label":"Playground Structure"},"id1451014813591":{"guid":"dc60e886d1284611b78a7ee99740a4ca.16","latlng":"33.474571,-111.740905","label":"Baseball Field 4"},"id1451014816947":{"guid":"15761642aaf743fa814cdea53f98ccc2.16","latlng":"33.474308,-111.740794","label":"Baseball Field 2"},"id1451014826251":{"guid":"377995dfee374b688317d4f63c726949.16","latlng":"33.453646,-111.730659","label":"City of Mesa Park"},"id1451014829037":{"guid":"f537b59d4035494b96e11a80cceea5b4.16","latlng":"33.453864,-111.730312","label":"Young Players Playground"},"id1451014831827":{"guid":"1fc23da403d1422d99ed482fd87522b2.16","latlng":"33.454917,-111.73104","label":"Falcon Field: Falcon Warbirds"},"id1451014835136":{"guid":"3860b162075549eb909f6e6372a8d74d.16","latlng":"33.454732,-111.730511","label":"Falcon Field WWII"},"id1451014838212":{"guid":"69587f4a8d604779bb85894a642c9374.11","latlng":"33.454571,-111.729738","label":"Falcon Field Public Park"},"id1451014843391":{"guid":"220c8ee4237c41ba8e8fc7a9be43d399.16","latlng":"33.454116,-111.730228","label":"Falcon Field Instructors Plaque"},"id1451014850078":{"guid":"2a175a2d63c44a58b744049055334adb.12","latlng":"33.454243,-111.7302","label":"Per Ardua Ad Astra"},"id1451014853959":{"guid":"8dd909f18c694be3b7f764f9359162bc.16","latlng":"33.45399,-111.730039","label":"Falcon Field Ramada"},"id1451014858611":{"guid":"dbfc72bc9c6f422ca8d2939b00fce0e9.16","latlng":"33.454003,-111.729529","label":"City of Mesa Park"},"id1451014861641":{"guid":"85e4e5e07dfe4c43a752e4a7464700db.11","latlng":"33.454386,-111.728434","label":"Civil Air Patrol 305 Falcon Fi"},"id1451014865327":{"guid":"43ba9662865d4a9ab20df88396f1a740.11","latlng":"33.453713,-111.728487","label":"Falcon Field Dedication Plaque"},"id1451014868813":{"guid":"1d9ade128a424cbbbd672c6b1aa567af.16","latlng":"33.453695,-111.728789","label":"Falcon Field Cactus Fountain"},"id1451014874251":{"guid":"52a895767a1f4699a3991eb1ebc57a3d.16","latlng":"33.453151,-111.727504","label":"Hydrant"},"id1451014878660":{"guid":"1ab6ce8cd19d4dada35c82aaa30de827.16","latlng":"33.452715,-111.72744","label":"Hidden Rocket"},"id1451014882301":{"guid":"535a5f6cadb148feae2a2de734c60240.16","latlng":"33.452469,-111.727751","label":"Gator Rides"},"id1451014886602":{"guid":"410a316a2f8948ad808c2eecdfcb3889.16","latlng":"33.452214,-111.728029","label":"Monastery"},"id1451014889673":{"guid":"a4e3e2293fa740bf8a5ac473daa811a3.11","latlng":"33.452033,-111.727982","label":"Statue - The Monastery at Falc"},"id1451014892879":{"guid":"4a22e71986744a02984615515b4c013e.11","latlng":"33.452078,-111.728308","label":"Falcon Field Municipal Airport"},"id1451014899049":{"guid":"6e66559cffe74dbab095ea23ad629366.16","latlng":"33.452276,-111.73163","label":"Falcon Field Water Tower"},"id1451014902439":{"guid":"0b9bc2d81aed4cef9539395521abcea3.16","latlng":"33.452185,-111.732893","label":"Airplane Wall "},"id1451014906191":{"guid":"f816428afb9541aebdecc4a6df7660db.16","latlng":"33.452235,-111.734381","label":"Falcon Field Ghost"},"id1451014909176":{"guid":"9e74807e8fde4b87a74b8b9a28f76ac7.12","latlng":"33.452471,-111.734567","label":"Yak 9"},"id1451014912576":{"guid":"dceb0b9c8c514734b81b821b7152dee2.16","latlng":"33.452247,-111.734881","label":"Falcon Field Rememberance"},"id1451014915439":{"guid":"f0bf15c6c2494b6192a5807b29a5b0c3.16","latlng":"33.452889,-111.734345","label":"Maid in the Shade"},"id1451014918473":{"guid":"388d6b5383c1467e81ed9857ec42d040.12","latlng":"33.45319,-111.735165","label":"Arizona Wing Commemorative Air"},"id1451014922140":{"guid":"85be562cd2594c35a80f2d066ea90aba.16","latlng":"33.453323,-111.735096","label":"C-47/DC-3"},"id1451014925633":{"guid":"5fd59b81c4f745e09a9be4d2f9f54717.16","latlng":"33.453271,-111.735715","label":"Army HELI"},"id1451014928420":{"guid":"9d039262fa904c4b87bd4d91569c8949.16","latlng":"33.45315,-111.735384","label":"Royal Navy Plane"},"id1451014931130":{"guid":"d88294986478419d986ada48f0063884.12","latlng":"33.452928,-111.735548","label":"A Tribute to the B-29 Super Fo"},"id1451014934456":{"guid":"770a7d6f68ed4d7c9eb5d364bf62c5ef.11","latlng":"33.452688,-111.735292","label":"Aircraft Museum Falcon Field"},"id1451014937596":{"guid":"44039273aff14607bc4991cd6a2cb420.11","latlng":"33.452556,-111.735475","label":"Memorial Plaque Falcon Field A"},"id1451014941624":{"guid":"06ceb908c2c74c25bc418fd1bc0cd59e.16","latlng":"33.452329,-111.735288","label":"BP-204"},"id1451014944241":{"guid":"3bacdf3b181e4246bba41a2c94d457b5.16","latlng":"33.452044,-111.735735","label":"Falcon Field"},"id1451014952376":{"guid":"7f6677539a714af196881c0918e9c27a.11","latlng":"33.451558,-111.735661","label":"Falcon Field Wind"},"id1451014962245":{"guid":"03ccf0f2be7943dfa3fd9a2b8fa0227f.16","latlng":"33.439389,-111.73529","label":"Salsa Cabana Wall Mural "},"id1451014966944":{"guid":"0cd39817fb6b46d9bf8d08caed7a193a.16","latlng":"33.440829,-111.734852","label":"Princess Park"},"id1451014969785":{"guid":"6be82b23254640eeaf996c7ab0639ee3.16","latlng":"33.440833,-111.734163","label":"Princess Park"},"id1451014974606":{"guid":"aa125cf02b03443395806ce54ad73dfe.16","latlng":"33.438432,-111.727545","label":"48th St and Brown Dog Park - West Entrance"},"id1451014977152":{"guid":"2669207735a54f10a31d5afdc341a7ad.16","latlng":"33.437447,-111.726184","label":"Brown Rd. Dog Park 2"},"id1451014984312":{"guid":"286b45f9a72f4700a83e6705d63f6fd6.16","latlng":"33.437469,-111.726873","label":"48th St And Brown Middle Entrance To Dog Park"},"id1451014987125":{"guid":"a584aa5c3e2b4b22891912add9d3b78f.16","latlng":"33.4367,-111.727306","label":"First Baptist Church"},"id1451014996790":{"guid":"d7afc445245843ac91e48ed7d8408f43.16","latlng":"33.437541,-111.745667","label":"Latter Day Spire Church"},"id1451015008159":{"guid":"fb4db10e79394b649305f3d9f5438ca2.16","latlng":"33.437491,-111.718863","label":"Alta Mesa Guard Tower (North)"},"id1451015011268":{"guid":"b37b9d9436ff41988cc959296ead0630.16","latlng":"33.437139,-111.718789","label":"Alta Mesa Guard Tower (South)"},"id1451015039266":{"guid":"cde878f8dc934b14bf56aa5c347d5651.16","latlng":"33.437509,-111.753783","label":"Sunkist"},"id1451015042961":{"guid":"cf396ae1b21643e39bbd0d9b87a8970b.16","latlng":"33.437655,-111.755365","label":"Living Word Bible Church"},"id1451015046331":{"guid":"59a1e10206404ae6a55a00b56081bbe0.11","latlng":"33.438601,-111.755008","label":"Mesa Dome Temple"},"id1451015049505":{"guid":"dfe1fcb4916346788ffffb1d4b09d385.16","latlng":"33.443621,-111.75517","label":"Eldon Cooley Family Park"},"id1451015052392":{"guid":"4344ff4955074104a6aff36f378d9e35.16","latlng":"33.443989,-111.753956","label":"The Church of Jesus Christ of Latter Day Saints"},"id1451015055992":{"guid":"0b14e264445944b1b56bed6934512556.16","latlng":"33.444342,-111.75839","label":"The Church of Jesus Christ of Latter Day Saints"},"id1451015071666":{"guid":"0c2c4c1bf5314c9aa144bff103f3c501.16","latlng":"33.437674,-111.782808","label":"Gilbert LDS"},"id1451015085782":{"guid":"d90de5773ad54f94b9c91ecad58fe905.16","latlng":"33.436127,-111.717681","label":"The Palms Dinner Music Theater"},"id1451015089618":{"guid":"51d98b8988dc41b1bb48fdad45059593.16","latlng":"33.445654,-111.716011","label":"Church of Jesus Christ of Latter Day Saints"},"id1451015092305":{"guid":"0bdd99aa91ba4388840d895477193f3f.16","latlng":"33.448324,-111.721007","label":"Mesa Ranger Station"},"id1451015095635":{"guid":"8d606e3b6f2d4485abeef585539fb243.16","latlng":"33.449064,-111.718582","label":"The Springs"},"id1451015098464":{"guid":"d5318b08b2c04968a8b0b67f1efe9c81.16","latlng":"33.45019,-111.719379","label":"Flancer the Goat"},"id1451015103153":{"guid":"b5ac10149d954a36ad03708c2d3e16ea.16","latlng":"33.45091,-111.720929","label":"Air Rescue"},"id1451015106427":{"guid":"7edbdaddf1694d839b6004d366d954ac.16","latlng":"33.451542,-111.722679","label":"Blues Brother Piggies"},"id1451015111699":{"guid":"6c8b5bf3078744d98522a7bdab73b160.16","latlng":"33.450033,-111.723804","label":"DCSJ LLC"},"id1451015120713":{"guid":"6cd613eac2a642a3a780d9bbef016d73.16","latlng":"33.455975,-111.72766","label":"Historical Warplanes"},"id1451015123695":{"guid":"67b0380549c943abb2cfb5544fe9c245.16","latlng":"33.457198,-111.727435","label":"Falcon Field Plaque"},"id1451015129332":{"guid":"968a8ff9711e4bf78b078fab1cca501a.16","latlng":"33.457336,-111.727195","label":"The Falcon "},"id1451015136387":{"guid":"966ddb3b41b54d9f89024ea6f2d4a404.12","latlng":"33.457763,-111.719611","label":"US Post Office"},"id1451015149603":{"guid":"85dc91f8f1d841a2b4bf59feca9fb3cf.16","latlng":"33.456393,-111.709781","label":"Oscar & Jay"},"id1451015154842":{"guid":"f26ca10520be400eae7c6fe277a9668e.16","latlng":"33.455612,-111.709504","label":"Mueller Field"},"id1451015157653":{"guid":"b52bd4fdd1574a3a815b1671913ef725.16","latlng":"33.454191,-111.709468","label":"Apache Wells Comm Church"},"id1451015163772":{"guid":"7c1edfc9c76c44bfa65eb95fe1316fd9.16","latlng":"33.45201,-111.710323","label":"Apache Wells"},"id1451015166964":{"guid":"60098740c8ec40ab9f99742c67838f0c.16","latlng":"33.451699,-111.710419","label":"Alta Mesa Spire"},"id1451015171653":{"guid":"3abbe9d7fcf14492b29f1df5638aedbd.16","latlng":"33.450519,-111.710158","label":"Welcome to Mesa Park Sign"},"id1451015175176":{"guid":"637e9d8fab8f4d9cb2f7d6fc14f4493b.16","latlng":"33.44989,-111.70996","label":"Alta Mesa Park"},"id1451015178718":{"guid":"c799c9e75d4f4f68913a41de59670c88.16","latlng":"33.449923,-111.711287","label":"Alta Mesa Park Ramada"},"id1451015183933":{"guid":"b5250b281b41412894db5b2af29bc068.16","latlng":"33.451327,-111.701023","label":"Circle K 6005 E McKellips Road"},"id1451015188845":{"guid":"149f1d6ae6b64954a162dc90822342c6.16","latlng":"33.45214,-111.700915","label":"5RCHA Liquid Oasis"},"id1451015196448":{"guid":"e27e62078dbd4f638afab9db12c11475.16","latlng":"33.453095,-111.694843","label":"Painted Mountain Pond And Picnic Area"},"id1451015199704":{"guid":"6dadf1543b7f4cf698bf616b31d1ebe9.16","latlng":"33.452774,-111.694543","label":"Wagonwheel Bridge and Rock Fountain"},"id1451015202702":{"guid":"e2f75520aba24c61b5ecd89450fc4e48.16","latlng":"33.452332,-111.693774","label":"Painted Fountain"},"id1451015205746":{"guid":"2ad146b228ac4791913d36ee06c9c44d.16","latlng":"33.452019,-111.694024","label":"Westgate Country Club"},"id1451015212300":{"guid":"c2556839979b4504b875c76612e08338.16","latlng":"33.455311,-111.685291","label":"Cross"},"id1451015216923":{"guid":"a507af79317540928c838d5f1df82b68.16","latlng":"33.445981,-111.687935","label":"Ivy Park"},"id1451015257626":{"guid":"92022e57fe8442fda13ec7a7e4a60400.16","latlng":"33.442058,-111.684721","label":"Saguaro Hills"},"id1451015262044":{"guid":"b59f44d6c75843608f9c424747143084.16","latlng":"33.450021,-111.702071","label":"Desert Peaks"},"id1451015265501":{"guid":"ae570c45dd13435f8906515dc29a637b.16","latlng":"33.44358,-111.70235","label":"Pigeon Fountain"},"id1451015269374":{"guid":"c1df4b459c6d4beba42e084e9b93ecb1.16","latlng":"33.443325,-111.701998","label":"All Saints Catholic Church"},"id1451015273474":{"guid":"1f5c3f56f5144c89b65d572152148cd6.16","latlng":"33.441468,-111.701944","label":"Church of Latter Day Saints"},"id1451015277560":{"guid":"d0262e694e5f4e56bba4c166586470b4.16","latlng":"33.438549,-111.700642","label":"Fitness Works"},"id1451015281258":{"guid":"e2da473007ea4ce69c7e2713c7a8885f.16","latlng":"33.438052,-111.700258","label":"Christ's Church Of Peace"},"id1451015400248":{"guid":"6ab53e3c678f4abc91430352683bdbbb.16","latlng":"33.438043,-111.684991","label":"Circle K 1202 N Power Road"},"id1451015403223":{"guid":"6335319d947a42528cb823f095879ce0.16","latlng":"33.4376,-111.690227","label":"Brown Road Baptist"},"id1451015415082":{"guid":"8117a503c2924287a027f8cf38571a6b.16","latlng":"33.452411,-111.71515","label":"Sunrise Village Fountain"},"id1451015431663":{"guid":"2fc520cce2074a6180a3893273642b75.16","latlng":"33.456255,-111.681453","label":"Quarter Mile Marker"},"id1451015435459":{"guid":"21f2d7d5654e485f88dabe2b30c1d4a1.16","latlng":"33.454504,-111.681429","label":"Trailhead"},"id1451015438484":{"guid":"42af421628d948aa9735a78a0f57b4eb.16","latlng":"33.457425,-111.683817","label":"MCC RM Power Road Portal"},"id1451015441800":{"guid":"a06b5d7073914fb4bb79e62eeb197559.16","latlng":"33.461168,-111.683382","label":"Basin Park"},"id1451015444926":{"guid":"c860b5fbe4414d8983b9c5da8118b3c1.16","latlng":"33.457002,-111.67701","label":"Mile Marker 1.00"},"id1451015449252":{"guid":"92200ddd311e40c48db9f5c2bc4b9e89.16","latlng":"33.455419,-111.678807","label":"Pillars"},"id1451015451925":{"guid":"b6bf6e3b5b35424e90010b706aa11066.16","latlng":"33.455407,-111.678412","label":"Desert Shrine"},"id1451015456165":{"guid":"ad107dfb2b294d24b4f394d5eec3d4fe.16","latlng":"33.455047,-111.678328","label":"MCC Red Mountain"},"id1451015459450":{"guid":"e59d3362cf6b42eb98016e07dfe4183f.16","latlng":"33.454669,-111.678866","label":"MCC RED MOUNTAIN RAP Center"},"id1451015463155":{"guid":"47605295d1e44622ab4376c532d908d3.16","latlng":"33.452633,-111.680809","label":"Mile Marker 1.75"},"id1451015467013":{"guid":"3588bbcb3168413abf3387d9eae8d204.16","latlng":"33.452133,-111.683387","label":"Circle K 2005 N Power Road "},"id1451015470381":{"guid":"365da37c0dba4dc595df863f6434255e.16","latlng":"33.4542,-111.675868","label":"Trailhead 2"},"id1451015473030":{"guid":"8a6e835896b54a07a93385f441274ee4.16","latlng":"33.453556,-111.675976","label":"Mile Marker 1.25"},"id1451015476631":{"guid":"ac5bef18ce0e442a941b345efb57e0bc.16","latlng":"33.452283,-111.676747","label":"Institute of Religion Church of Latter Day Saints"},"id1451015623490":{"guid":"5abda62f26444b54b8bacabdab8e0472.16","latlng":"33.468108,-111.683248","label":"Iron Clam"},"id1451015634812":{"guid":"1a72dcecd88342c196b97743d02a288e.16","latlng":"33.469074,-111.685584","label":"Incognito Palm"},"id1451015639393":{"guid":"5b0001d2b75b40efb12db5a745787cd6.16","latlng":"33.469619,-111.684438","label":"Red Mountain United Methodist Church"},"id1451015643866":{"guid":"c9f9a40390264567846d4fb7a86a63ef.16","latlng":"33.471427,-111.686517","label":"LDS Church (Preston Building)"},"id1451015656076":{"guid":"c23f5e12cbed413cb8089d662dd5c60e.16","latlng":"33.476676,-111.695935","label":"Cog Of The Park "},"id1451015659384":{"guid":"4b6689dff51c47bebc7baba4928b7027.16","latlng":"33.476703,-111.69554","label":"Tic Tac Toe In The Park "},"id1451015686742":{"guid":"84722656de5e4e2da677b3bd0b23dacc.16","latlng":"33.461599,-111.718951","label":"Falcon Field Municipal Airport"},"id1451015696260":{"guid":"a57cfed3b8e44e16b0357b9d6b38ab23.16","latlng":"33.480131,-111.69556","label":"Prayer Garden"},"id1451015704636":{"guid":"1de08bfe3dd146038be3ee202434ac53.16","latlng":"33.480427,-111.695482","label":"Mesa Palms Seventh Day Adventist Church"},"id1451015710049":{"guid":"74eb115335bf4f65ba7d417a49499562.16","latlng":"33.483359,-111.702165","label":"Red Rock Park"},"id1451015715621":{"guid":"45fa68ea24474c8d844e5eef951f52d3.16","latlng":"33.481053,-111.710607","label":"Red Mountain Commerce Center"},"id1451015719559":{"guid":"1eb3804138354c53b20e29f0956ddfe8.16","latlng":"33.481767,-111.711819","label":"St Ignatius Church"},"id1451015727005":{"guid":"9b1174edec544fc2b0f3b67076b072ce.12","latlng":"33.477293,-111.7018","label":"Mesa Fire Station 14"},"id1451015731145":{"guid":"1c91ce1ef2d44f28895451974e9dcb95.16","latlng":"33.476214,-111.699701","label":"Red Mountain Community Church"},"id1451015734252":{"guid":"7e9acabdf9ac497886da9ce27f491bd5.16","latlng":"33.477052,-111.695195","label":"Park Welcome Sign"},"id1451015741120":{"guid":"5f1df00478a548268526960c05bac492.16","latlng":"33.476907,-111.718278","label":"Sunshine Acres"},"id1451015743743":{"guid":"88751a6b7ddb4bbb8bc4be0317343219.16","latlng":"33.473169,-111.709987","label":"Longbow"},"id1451015747089":{"guid":"8bfe101c0e23483dafb6b3917206d0a0.16","latlng":"33.472292,-111.709876","label":"Longbow"},"id1451015751169":{"guid":"8817ca3795a349ba9b126e92f570aecf.16","latlng":"33.471163,-111.72066","label":"Home of the Apache"},"id1451015756370":{"guid":"2a8ff694b5bc43a989c0ff72cbdc4cc6.16","latlng":"33.469614,-111.701105","label":"Desert Trails Park"},"id1451015760035":{"guid":"cf1d199c97524af3810754516b3eeed1.16","latlng":"33.469257,-111.701102","label":"Desert Trails Bike Park"},"id1451015765115":{"guid":"68b82eadcfca4ec7aae19e7b9ed59d8d.16","latlng":"33.469114,-111.70002","label":"City Of Mesa Park Sign"},"id1451015769409":{"guid":"355407b120074d46ab24f82028a4cd23.16","latlng":"33.466794,-111.700845","label":"Desert Trails Park South West Entrance"},"id1451015773410":{"guid":"343162a4abf441bb85f52076abe30d59.16","latlng":"33.466845,-111.697465","label":"Desert Trails Park South East Entrance"},"id1451015811014":{"guid":"09d33cb1775740d081428e7f9741d417.16","latlng":"33.477126,-111.695925","label":"Summit Park"}}}}}
