Portals

{"maps":{"idOthers":{"label":"Others","state":1,"bkmrk":{}}},"portals":{"idOthers":{"label":"Others","state":1,"bkmrk":{"id1450906938437":{"guid":"80c0e09bc11b41dc9cfbe6d4492b15db.16","latlng":"33.465593,-111.864882","label":"We the People"},"id1450906941870":{"guid":"be86251c67ae41a18a54b50135273352.12","latlng":"33.466788,-111.864361","label":"Salt River Post Office"},"id1450906944864":{"guid":"f4c83326c4d34e72ac46935b7ae0f720.16","latlng":"33.467192,-111.865741","label":"Salt River Presbyterian Church"},"id1450906948625":{"guid":"a349d5318df54416a82fff27e3e95b8b.16","latlng":"33.468037,-111.865453","label":"Salt River Presbyterian Church"},"id1450906951778":{"guid":"183f2de0ce0744c1b6d00195e76f5683.12","latlng":"33.468389,-111.865877","label":"Salt River Tribal Library"},"id1450906955669":{"guid":"0550305c3d114da69ba86a4dede43d97.16","latlng":"33.468314,-111.865091","label":"Rallo Baptisto Teen Center Mural"},"id1450906960112":{"guid":"385051621f6b437dba14c6dd44806e65.16","latlng":"33.469616,-111.86485","label":"Salt River Water Tower"},"id1450906968055":{"guid":"32b1e006f1ca4e639c51e37a02731793.16","latlng":"33.471083,-111.848209","label":"Salt River LDS "},"id1450906972329":{"guid":"010cc123b91a40f693b1bf47e66625f5.16","latlng":"33.483593,-111.868729","label":"Salt River Memorial Hall"},"id1450906975911":{"guid":"5fa93debbf7245db8d971936d1649170.16","latlng":"33.483453,-111.866157","label":"St. Francis of Assisi Catholic Church"},"id1450906979447":{"guid":"9c68d8b3c5ee4168ae4ce91f3849da90.16","latlng":"33.486072,-111.865233","label":"Friendship Park"},"id1450906981933":{"guid":"9e8fd5131cc243ba85376676e62f206b.12","latlng":"33.487173,-111.864945","label":"Salt River Pima Museum"},"id1450906984558":{"guid":"6539ac09661943fc802e2bb5fd6c69b0.16","latlng":"33.487297,-111.863012","label":"SRPD Mural"},"id1450906987194":{"guid":"8a65d6ea328145f9bd6d3835e870f7ba.16","latlng":"33.486403,-111.862774","label":"Man in the Maze"},"id1450907005692":{"guid":"d444923aacf74014b66b10ba26853062.12","latlng":"33.494668,-111.888691","label":"Phoenix 101 Intersection 2004"},"id1450907044298":{"guid":"78c3af80d5614179bd02af6775f35467.12","latlng":"33.509564,-111.885854","label":"Pima Reservation Boundary"},"id1450907047544":{"guid":"8959b425899c4dbaa258201d0e1bb9bd.16","latlng":"33.51146,-111.886277","label":"Xeriscape Canopy"},"id1450907050457":{"guid":"8556fbdb356a461e83deefa5a3bf713e.11","latlng":"33.511392,-111.885676","label":"SCC Performing Arts Center"},"id1450907053635":{"guid":"e766a38b34ac4040a1bbecf2a22141bb.16","latlng":"33.511507,-111.885108","label":"SCC Art"},"id1450907056909":{"guid":"a6f6d6c7fa5f4489b43f23c56806eb49.16","latlng":"33.511404,-111.884564","label":"Conrad Bensyl Memorial"},"id1450907059942":{"guid":"39837eae292f46ca8588fcd9cbe6f026.16","latlng":"33.511167,-111.883588","label":"Library Circles"},"id1450907065662":{"guid":"71227a8f53e64f988ed627eac6d90175.16","latlng":"33.511252,-111.882661","label":"Iron Art"},"id1450907069117":{"guid":"3038691cc9b54b47ae168e6174dd9ac2.16","latlng":"33.511246,-111.882412","label":"The Twist"},"id1450907072893":{"guid":"ca14ec1ab7e24d37a9a6fa4c766d0469.16","latlng":"33.512169,-111.881901","label":"Cecilia Garden Memorial"},"id1450907075893":{"guid":"7da2c27f7808491c86ad7ca95c346a75.16","latlng":"33.512668,-111.881408","label":"Reach For The Sky"},"id1450907080789":{"guid":"1ad2058cdd7c42379e535f8bbeb3efff.16","latlng":"33.512734,-111.882029","label":"Semicircle Flower Sculpture"},"id1450907086756":{"guid":"ba2f38416c1b4a62b5ae6829ca1c20cd.11","latlng":"33.513182,-111.882682","label":"SCC LC Annex"},"id1450907091728":{"guid":"d44f7ecbefc54cf19ed5cb9754ade837.16","latlng":"33.51312,-111.883093","label":"SCC Natural Sciences"},"id1450907095455":{"guid":"e88333b72c92441e95c8658dc6884f90.16","latlng":"33.512842,-111.883324","label":"Rusted Cabanas"},"id1450907098742":{"guid":"30a12f7e73f14f66bb4bcd617d3b9d14.16","latlng":"33.512651,-111.883692","label":"Stacked spheroids"},"id1450907101929":{"guid":"609af06a7e384f14bb3a63c2f105dd4e.16","latlng":"33.513063,-111.885719","label":"Dr Decabooter Complex"},"id1450907108954":{"guid":"520046357fd84949a9e2542ca2c8c5ee.16","latlng":"33.513042,-111.884958","label":"Seven Large Eggs"},"id1450907112596":{"guid":"c959f7f9858442689fce2e8b8cc75ae3.11","latlng":"33.511744,-111.884006","label":"SCC Two Waters Circle"},"id1450907115950":{"guid":"e16f24c6d75243d69f0bb311e9c646d9.16","latlng":"33.512022,-111.88421","label":"SCC Strong Root Donors Wall"},"id1450907122766":{"guid":"70aa610cdc18462fb3adec5950892634.16","latlng":"33.512073,-111.883867","label":"Two Waters Circle"},"id1450907125785":{"guid":"7539f82dd9484cd28f5341f0fbb4b5c1.16","latlng":"33.511746,-111.883472","label":"SCC Emeritus Dedication Wall"},"id1450907129848":{"guid":"4f6881b8e6a4495581c422a84862fedd.16","latlng":"33.511251,-111.881121","label":"Artichoke Compass"},"id1450907135917":{"guid":"d735c055bce140ce9df06ee1f28e431f.16","latlng":"33.512465,-111.883784","label":"Sonoran Desert Reptile Pavilion"},"id1450907139006":{"guid":"9b5dc0a6cdfa4c66b442ff7e8fa9c3f8.16","latlng":"33.51249,-111.884002","label":"May Peace Prevail On Earth"},"id1450907142599":{"guid":"64be5a227c514a448fec92a2c4fc1be0.16","latlng":"33.512561,-111.884279","label":"Rusted Steel Sculpture"},"id1450907145376":{"guid":"ce7ad30b5f214461b32bca1ee8533ad6.16","latlng":"33.513337,-111.883545","label":"Cement Cactus"},"id1450907148214":{"guid":"3b4a6d73861f43ecb8287a3942d3ba1d.16","latlng":"33.51422,-111.882461","label":"Welded Gate Shapes"}}}}}

Links (Brown->Yellow->Red->Green->Purple)

[{"type":"polyline","latLngs":[{"lat":33.51422,"lng":-111.882461},{"lat":33.513063,"lng":-111.885719},{"lat":33.51146,"lng":-111.886277},{"lat":33.509564,"lng":-111.885854},{"lat":33.511251,"lng":-111.881121},{"lat":33.512668,"lng":-111.881408},{"lat":33.51422355971883,"lng":-111.88251256942749}],"color":"#a24ac3"},{"type":"polyline","latLngs":[{"lat":33.513042,"lng":-111.884958},{"lat":33.511392,"lng":-111.885676},{"lat":33.511167,"lng":-111.883588},{"lat":33.511246,"lng":-111.882412},{"lat":33.512169,"lng":-111.881901},{"lat":33.512734,"lng":-111.882029},{"lat":33.513182,"lng":-111.882682},{"lat":33.513337,"lng":-111.883545},{"lat":33.513042,"lng":-111.884958}],"color":"#51c34a"},{"type":"polyline","latLngs":[{"lat":33.51312,"lng":-111.883093},{"lat":33.512561,"lng":-111.884279},{"lat":33.511507,"lng":-111.885108},{"lat":33.511404,"lng":-111.884564},{"lat":33.511252,"lng":-111.882661},{"lat":33.51312,"lng":-111.883093}],"color":"#c34a4a"},{"type":"polyline","latLngs":[{"lat":33.512842,"lng":-111.883324},{"lat":33.512651,"lng":-111.883692},{"lat":33.51249,"lng":-111.884002},{"lat":33.512022,"lng":-111.88421},{"lat":33.511744,"lng":-111.884006},{"lat":33.511746,"lng":-111.883472},{"lat":33.512842,"lng":-111.883324},{"lat":33.512842,"lng":-111.883324},{"lat":33.512842,"lng":-111.883324}],"color":"#c1c34a"},{"type":"polyline","latLngs":[{"lat":33.512465,"lng":-111.883784},{"lat":33.512073,"lng":-111.883867}],"color":"#c38a4a"},{"type":"polyline","latLngs":[{"lat":33.512073,"lng":-111.883867},{"lat":33.512022,"lng":-111.88421},{"lat":33.512073,"lng":-111.883867},{"lat":33.511744,"lng":-111.884006},{"lat":33.512073,"lng":-111.883867},{"lat":33.51249,"lng":-111.884002},{"lat":33.512465,"lng":-111.883784},{"lat":33.512651,"lng":-111.883692},{"lat":33.512465,"lng":-111.883784},{"lat":33.512842,"lng":-111.883324},{"lat":33.512465,"lng":-111.883784},{"lat":33.511746,"lng":-111.883472},{"lat":33.512073,"lng":-111.883867}],"color":"#c38a4a"},{"type":"polyline","latLngs":[{"lat":33.511507,"lng":-111.885108},{"lat":33.512022,"lng":-111.88421},{"lat":33.512561,"lng":-111.884279},{"lat":33.51249,"lng":-111.884002},{"lat":33.512651,"lng":-111.883692},{"lat":33.512561,"lng":-111.884279},{"lat":33.51312,"lng":-111.883093},{"lat":33.512842,"lng":-111.883324},{"lat":33.511252,"lng":-111.882661},{"lat":33.511746,"lng":-111.883472},{"lat":33.511404,"lng":-111.884564},{"lat":33.511744,"lng":-111.884006},{"lat":33.511507,"lng":-111.885108}],"color":"#c1c34a"},{"type":"polyline","latLngs":[{"lat":33.512561,"lng":-111.884279},{"lat":33.513042,"lng":-111.884958},{"lat":33.51312,"lng":-111.883093},{"lat":33.513337,"lng":-111.883545},{"lat":33.51312,"lng":-111.883093},{"lat":33.513182,"lng":-111.882682},{"lat":33.51312,"lng":-111.883093},{"lat":33.512734,"lng":-111.882029},{"lat":33.511252,"lng":-111.882661},{"lat":33.512169,"lng":-111.881901},{"lat":33.511252,"lng":-111.882661},{"lat":33.511246,"lng":-111.882412},{"lat":33.511252,"lng":-111.882661},{"lat":33.511167,"lng":-111.883588},{"lat":33.511404,"lng":-111.884564},{"lat":33.511392,"lng":-111.885676},{"lat":33.511507,"lng":-111.885108},{"lat":33.513042,"lng":-111.884958}],"color":"#c34a4a"},{"type":"polyline","latLngs":[{"lat":33.513063,"lng":-111.885719},{"lat":33.513042,"lng":-111.884958},{"lat":33.51422,"lng":-111.882461},{"lat":33.513337,"lng":-111.883545},{"lat":33.51421908714175,"lng":-111.88249111175537},{"lat":33.513182,"lng":-111.882682},{"lat":33.512668,"lng":-111.881408},{"lat":33.512734,"lng":-111.882029},{"lat":33.511251,"lng":-111.881121},{"lat":33.512169,"lng":-111.881901},{"lat":33.511251,"lng":-111.881121},{"lat":33.511246,"lng":-111.882412},{"lat":33.509564,"lng":-111.885854},{"lat":33.511167,"lng":-111.883588},{"lat":33.509564,"lng":-111.885854},{"lat":33.511392,"lng":-111.885676},{"lat":33.51146,"lng":-111.886277},{"lat":33.513042,"lng":-111.884958}],"color":"#51c34a"}]
